[
    { "name": "Khulna", "lat": 22.820000, "lon": 89.550003 },
    { "name": "Gazipur", "lat": 23.999941, "lon": 90.420273 },
    { "name": "Chuadanga", "lat": 23.643999, "lon": 88.855637 },
    { "name": "Sonargaon", "lat": 23.644480, "lon": 90.598434 },
    { "name": "Narayanganj", "lat": 23.622641, "lon": 90.499794 },
    { "name": "Rangpur", "lat": 25.744860, "lon": 89.275589 },
    { "name": "Saidpur", "lat": 25.778522, "lon": 88.897377 },
    { "name": "Panchagarh", "lat": 26.335377, "lon": 88.551697 },
    { "name": "Satkhira", "lat": 22.723406, "lon": 89.075127 },
    { "name": "Chattogram", "lat": 22.341900, "lon": 91.815536 },
    { "name": "Jamalpur", "lat": 24.923025, "lon": 89.950111 },
    { "name": "Tongi", "lat": 23.911522, "lon": 90.388962 },
    { "name": "Feni", "lat": 23.015913, "lon": 91.397583 },
    { "name": "Mymensingh", "lat": 24.743448, "lon": 90.398384 },
    { "name": "Bajitpur", "lat": 24.213799, "lon": 90.952202 },
    { "name": "Sherpur", "lat": 25.019405, "lon": 90.013733 },
    { "name": "Pabna", "lat": 24.006355, "lon": 89.249298 },
    { "name": "Shyamnagar", "lat": 22.337299, "lon": 89.108650 },
    { "name": "Chandpur", "lat": 23.232100, "lon": 90.663078 },
    { "name": "Raozan", "lat": 22.527651, "lon": 91.920555 },
    { "name": "Kurigram", "lat": 25.810347, "lon": 89.648697 },
    { "name": "Jagannathpur", "lat": 24.771305, "lon": 91.545555 },
    { "name": "Dinajpur", "lat": 25.636574, "lon": 88.636322 },
    { "name": "Fatulla", "lat": 23.637569, "lon": 90.483269 },
    { "name": "Narsingdi", "lat": 23.920717, "lon": 90.718811 },
    { "name": "Palash", "lat": 23.987967, "lon": 90.648849 },
    { "name": "Joydebpur", "lat": 23.989014, "lon": 90.418167 },
    { "name": "Savar", "lat": 23.858334, "lon": 90.266670 },
    { "name": "Comilla", "lat": 23.450001, "lon": 91.199997 },
    { "name": "Meherpur", "lat": 23.772125, "lon": 88.631371 },
    { "name": "Dhaka", "lat": 23.810331, "lon": 90.412521 },
    { "name": "Kishoreganj", "lat": 24.433123, "lon": 90.786568 },
    { "name": "Jashore", "lat": 23.170664, "lon": 89.212418 },
    { "name": "Sylhet", "lat": 24.894802, "lon": 91.869034 },
    { "name": "Sylhet (2)", "lat": 24.886436, "lon": 91.880722 },
    { "name": "Dhaka (2)", "lat": 23.777176, "lon": 90.399452 },
    { "name": "Dhaka (3)", "lat": 23.811056, "lon": 90.407608 }
  ]
  